{"version": 0.6, "generator": "Overpass API 0.7.62.5 1bd436f1", "osm3s": {"timestamp_osm_base": "2025-03-28T19:18:45Z", "copyright": "The data included in this document is from www.openstreetmap.org. The data is made available under ODbL."}, "elements": [{"type": "node", "id": 2661369734, "lat": 41.0133952, "lon": 28.6566489}, {"type": "node", "id": 2661369735, "lat": 41.0132208, "lon": 28.6570834}, {"type": "node", "id": 2661369736, "lat": 41.013351, "lon": 28.6571727}, {"type": "node", "id": 2661369737, "lat": 41.0135207, "lon": 28.6567352}, {"type": "node", "id": 4511371082, "lat": 41.0178075, "lon": 28.6608987, "tags": {"amenity": "hospital", "emergency": "yes", "healthcare": "hospital", "name": "\u00d6zel Mediplus T\u0131p Merkezi"}}, {"type": "node", "id": 8438032718, "lat": 41.0133418, "lon": 28.6568742, "tags": {"addr:housenumber": "9", "addr:street": "Sultan Murat Caddesi", "amenity": "hospital", "healthcare": "hospital", "name": "Medihaus", "name:tr": "Medihaus Surgery Center"}}, {"type": "way", "id": 260615279, "nodes": [2661369734, 2661369735, 2661369736, 2661369737, 2661369734], "tags": {"addr:housenumber": "9", "addr:postcode": "34515", "addr:street": "Sultan Ahmet Caddesi", "amenity": "hospital", "building": "yes", "email": "info@medihaus.com.tr", "healthcare": "hospital", "internet_access": "wlan", "name": "Medihaus T\u0131p Merkezi", "name:en": "Medihaus Medical Center", "opening_hours": "24/7", "phone": "444 5 748", "website": "https://www.medihaus.com.tr/"}}]}