{"version": 0.6, "generator": "Overpass API 0.7.62.5 1bd436f1", "osm3s": {"timestamp_osm_base": "2025-03-28T18:25:15Z", "copyright": "The data included in this document is from www.openstreetmap.org. The data is made available under ODbL."}, "elements": [{"type": "node", "id": 4963335724, "lat": 41.0586431, "lon": 28.8416399}, {"type": "node", "id": 4963335725, "lat": 41.0578746, "lon": 28.8423641}, {"type": "node", "id": 4963335726, "lat": 41.0580303, "lon": 28.8429703}, {"type": "node", "id": 4963335727, "lat": 41.0579292, "lon": 28.8430776}, {"type": "node", "id": 4963335728, "lat": 41.057926, "lon": 28.8431543}, {"type": "node", "id": 4963335729, "lat": 41.0576743, "lon": 28.8439708}, {"type": "node", "id": 4963335730, "lat": 41.0573978, "lon": 28.8442785}, {"type": "node", "id": 4963335731, "lat": 41.0573172, "lon": 28.8445206}, {"type": "node", "id": 4963335732, "lat": 41.0575366, "lon": 28.8450798}, {"type": "node", "id": 4963335733, "lat": 41.0577277, "lon": 28.8450396}, {"type": "node", "id": 4963335734, "lat": 41.0579542, "lon": 28.8447836}, {"type": "node", "id": 4963335735, "lat": 41.0581072, "lon": 28.8445475}, {"type": "node", "id": 4963335736, "lat": 41.0582285, "lon": 28.8442658}, {"type": "node", "id": 4963335737, "lat": 41.0590699, "lon": 28.8429086}, {"type": "node", "id": 4963335738, "lat": 41.0591589, "lon": 28.8426645}, {"type": "node", "id": 4963335739, "lat": 41.0586139, "lon": 28.8416674}, {"type": "node", "id": 4963335743, "lat": 41.0580249, "lon": 28.8429289}, {"type": "node", "id": 5667672292, "lat": 41.054239, "lon": 28.8484094, "tags": {"addr:city": "Istanbul", "addr:district": "Ba\u011fc\u0131lar", "amenity": "clinic", "emergency": "no", "fee": "no", "healthcare": "clinic", "healthcare:speciality": "community;general", "name": "Ba\u011fc\u0131lar 20 No'lu Aike Sa\u011fl\u0131\u011f\u0131 Merkezi", "name:ar": "\u0645\u0631\u0643\u0632 \u0635\u062d\u0629 \u0627\u0644\u0639\u0627\u0626\u0644\u0629 \u0631\u0642\u0645 \u0662\u0660 \u0628\u0627\u063a\u062c\u0644\u0627\u0631", "operator": "T.C. Sa\u011fl\u0131k Bakanl\u0131\u011f\u0131", "operator:type": "government", "operator:wikidata": "Q4294365", "operator:wikipedia": "tr:T\u00fcrkiye Cumhuriyeti Sa\u011fl\u0131k Bakanl\u0131\u011f\u0131"}}, {"type": "node", "id": 5667672685, "lat": 41.0540031, "lon": 28.8468591, "tags": {"addr:city": "Istanbul", "addr:district": "Ba\u011fc\u0131lar", "amenity": "clinic", "description": "\u0639\u0645\u0644\u064a\u0627\u062a \u0648\u0643\u0634\u0641 \u0627\u0644\u0648\u0644\u0627\u062f\u0629", "emergency": "no", "fee": "yes", "healthcare": "clinic", "healthcare:speciality": "women", "name": "G\u00f6zde sa\u011fl\u0131k kabini", "name:ar": "\u0645\u0631\u0643\u0632 \u063a\u0648\u0632\u062f\u0629 \u0627\u0644\u0635\u062d\u064a"}}, {"type": "node", "id": 5667673492, "lat": 41.0624232, "lon": 28.8549452, "tags": {"addr:city": "Istanbul", "addr:district": "Ba\u011fc\u0131lar", "addr:street": "Barbaros caddesi", "amenity": "clinic", "fee": "yes", "healthcare": "clinic", "name": "\u00d6zel \u00d6z \u0130stanbul T\u0131p Merkezi", "name:ar": "\u0645\u0631\u0643\u0632 \u0627\u0648\u0632 \u0627\u0633\u0637\u0646\u0628\u0648\u0644 \u0627\u0644\u0637\u0628\u064a", "operator:type": "private"}}, {"type": "node", "id": 5667673513, "lat": 41.0628918, "lon": 28.8551006, "tags": {"addr:city": "Istanbul", "addr:district": "Ba\u011fc\u0131lar", "addr:street": "Barbaros caddesi", "amenity": "clinic", "fee": "yes", "healthcare": "clinic", "name": "\u00d6zel I\u015f\u0131k T\u0131p Merkezi", "name:ar": "\u0645\u0631\u0643\u0632 \u0627\u0634\u064a\u0643 \u0627\u0644\u0637\u0628\u064a", "operator:type": "private"}}, {"type": "node", "id": 6710450786, "lat": 41.0584734, "lon": 28.8430499, "tags": {"amenity": "clinic", "healthcare": "clinic"}}, {"type": "node", "id": 7179522987, "lat": 41.0569932, "lon": 28.8443596, "tags": {"amenity": "clinic", "healthcare": "clinic"}}, {"type": "node", "id": 8883751441, "lat": 41.0608053, "lon": 28.8532835, "tags": {"addr:city": "\u0130stanbul", "addr:district": "Ba\u011fc\u0131lar", "addr:housenumber": "18-20A", "addr:neighbourhood": "100. Y\u0131l", "addr:street": "2158. Sokak", "amenity": "clinic", "beds": "0", "emergency": "no", "healthcare": "clinic", "healthcare:speciality": "family_medicine", "name": "Ba\u011fc\u0131lar 27 Nolu Aile Sa\u011fl\u0131k Merkezi", "operator": "T.C. Sa\u011fl\u0131k Bakanl\u0131\u011f\u0131", "operator:wikidata": "Q4294365", "phone": "+90 212 4307304"}}, {"type": "node", "id": 9769276370, "lat": 41.0576239, "lon": 28.8434914}, {"type": "node", "id": 12200982447, "lat": 41.0576348, "lon": 28.8451092}, {"type": "way", "id": 506635204, "nodes": [4963335724, 4963335739, 4963335725, 4963335743, 4963335726, 4963335727, 4963335728, 9769276370, 4963335729, 4963335730, 4963335731, 4963335732, 12200982447, 4963335733, 4963335734, 4963335735, 4963335736, 4963335737, 4963335738, 4963335724], "tags": {"addr:city": "\u0130stanbul", "addr:district": "Ba\u011fc\u0131lar", "addr:housenumber": "6", "addr:neighbourhood": "G\u00f6ztepe Mahallesi", "addr:street": "2309. Sokak", "amenity": "hospital", "beds": "515", "emergency": "yes", "healthcare": "hospital", "name": "Medipol Mega Hastaneler Kompleksi", "phone": "+902124607777"}}]}