{"version": 0.6, "generator": "Overpass API 0.7.62.5 1bd436f1", "osm3s": {"timestamp_osm_base": "2025-03-28T19:24:00Z", "copyright": "The data included in this document is from www.openstreetmap.org. The data is made available under ODbL."}, "elements": [{"type": "node", "id": 2457420491, "lat": 40.8774596, "lon": 29.0984044, "tags": {"name": "Cansu Market", "shop": "convenience"}}, {"type": "node", "id": 9915036087, "lat": 40.8777637, "lon": 29.0967932, "tags": {"name": "Karadeniz Market", "shop": "supermarket"}}, {"type": "node", "id": 9915049111, "lat": 40.8778508, "lon": 29.0962249, "tags": {"name": "\u00c7inar Market", "shop": "supermarket"}}, {"type": "node", "id": 9921203433, "lat": 40.8778275, "lon": 29.0998491, "tags": {"name": "Ada Tekel", "shop": "supermarket"}}, {"type": "node", "id": 9921257118, "lat": 40.8779459, "lon": 29.1000029, "tags": {"name": "Ada Tekel", "shop": "supermarket"}}, {"type": "node", "id": 9983876837, "lat": 40.8768485, "lon": 29.1006359, "tags": {"name": "Can Market", "shop": "convenience"}}, {"type": "node", "id": 9983964789, "lat": 40.878313, "lon": 29.0999821, "tags": {"shop": "bakery"}}, {"type": "node", "id": 9983964790, "lat": 40.8783283, "lon": 29.0998466, "tags": {"name": "Koray Gida", "shop": "convenience"}}, {"type": "node", "id": 9983964795, "lat": 40.8780622, "lon": 29.0998134, "tags": {"shop": "bakery"}}, {"type": "node", "id": 9983964796, "lat": 40.8780251, "lon": 29.0998148, "tags": {"brand": "B\u0130M", "brand:wikidata": "Q1022075", "name": "B\u0130M", "opening_hours": "Mo-Su 09:00-21:00", "shop": "supermarket"}}, {"type": "node", "id": 9990534064, "lat": 40.8776736, "lon": 29.0997591, "tags": {"shop": "greengrocer"}}, {"type": "node", "id": 9990534067, "lat": 40.8775305, "lon": 29.1000161, "tags": {"shop": "convenience"}}, {"type": "node", "id": 9990534069, "lat": 40.8775107, "lon": 29.1002368, "tags": {"name": "Namli", "shop": "greengrocer"}}, {"type": "node", "id": 9994973776, "lat": 40.8767866, "lon": 29.1012383, "tags": {"brand": "A101", "brand:wikidata": "Q6034496", "name": "A101", "opening_hours": "Mo-Su 09:00-21:30", "shop": "supermarket"}}, {"type": "node", "id": 9995031608, "lat": 40.8771619, "lon": 29.1002743, "tags": {"brand": "Carrefour", "brand:wikidata": "Q217599", "name": "Carrefour", "shop": "convenience"}}, {"type": "node", "id": 9995031616, "lat": 40.8770758, "lon": 29.1004513, "tags": {"name": "G\u00fclada Market", "shop": "convenience"}}]}